{"total":639,"region":{"center":{"latitude":40.598267627010095,"longitude":-75.50285339355469}},"businesses":[{"distance":1339.2491509488623,"image_url":"https://s3-media2.fl.yelpcdn.com/bphoto/mbR7UphRwyQe4Ys3qAZDvg/o.jpg","rating":4.5,"coordinates":{"latitude":40.5947467162159,"longitude":-75.487684326447},"review_count":341,"transactions":["delivery","pickup"],"url":"https://www.yelp.com/biz/union-and-finch-allentown?adjust_creative=EcAKvUpMehZpTzjuIFD57g&utm_campaign=yelp_api_v3&utm_medium=api_v3_business_search&utm_source=EcAKvUpMehZpTzjuIFD57g","display_phone":"(610) 432-1522","phone":"+16104321522","price":"$$","name":"Union and Finch","alias":"union-and-finch-allentown","location":{"country":"US","address3":null,"address2":"","city":"Allentown","address1":"1528 W Union St","display_address":["1528 W Union St","Allentown, PA 18102"],"state":"PA","zip_code":"18102"},"id":"rDqhBB0nLwQC4aigLgooew","categories":[{"alias":"newamerican","title":"American (New)"},{"alias":"beer_and_wine","title":"Beer, Wine & Spirits"},{"alias":"breakfast_brunch","title":"Breakfast & Brunch"}],"is_closed":false},{"distance":6195.680156570182,"image_url":"https://s3-media1.fl.yelpcdn.com/bphoto/h7gIGCzTGdswE1kmJHy4Ig/o.jpg","rating":4,"coordinates":{"latitude":40.565789,"longitude":-75.562466},"review_count":205,"transactions":["delivery","pickup"],"url":"https://www.yelp.com/biz/the-shelby-allentown?adjust_creative=EcAKvUpMehZpTzjuIFD57g&utm_campaign=yelp_api_v3&utm_medium=api_v3_business_search&utm_source=EcAKvUpMehZpTzjuIFD57g","display_phone":"(610) 841-0808","phone":"+16108410808","price":"$$","name":"The Shelby","alias":"the-shelby-allentown","location":{"country":"US","address3":"","address2":"Ste 104","city":"Allentown","address1":"707 N Krocks Rd","display_address":["707 N Krocks Rd","Ste 104","Allentown, PA 18106"],"state":"PA","zip_code":"18106"},"id":"Y1K1F6cB8ZNQSLDElKX1oA","categories":[{"alias":"newamerican","title":"American (New)"},{"alias":"breakfast_brunch","title":"Breakfast & Brunch"},{"alias":"cocktailbars","title":"Cocktail Bars"}],"is_closed":false},{"distance":9334.20693092553,"image_url":"https://s3-media1.fl.yelpcdn.com/bphoto/mKS9oNmEzmKGPfTi9ENvgA/o.jpg","rating":4.5,"coordinates":{"latitude":40.51575,"longitude":-75.52415},"review_count":175,"transactions":[],"url":"https://www.yelp.com/biz/the-trapp-door-gastropub-emmaus-2?adjust_creative=EcAKvUpMehZpTzjuIFD57g&utm_campaign=yelp_api_v3&utm_medium=api_v3_business_search&utm_source=EcAKvUpMehZpTzjuIFD57g","display_phone":"(610) 965-5225","phone":"+16109655225","price":"$$","name":"The Trapp Door Gastropub","alias":"the-trapp-door-gastropub-emmaus-2","location":{"country":"US","address3":"","address2":"","city":"Emmaus","address1":"4226 Chestnut St","display_address":["4226 Chestnut St","Emmaus, PA 18049"],"state":"PA","zip_code":"18049"},"id":"ZOAsLpnrxXRtUOYUWAHFnQ","categories":[{"alias":"gastropubs","title":"Gastropubs"},{"alias":"newamerican","title":"American (New)"}],"is_closed":false},{"distance":2601.807505130761,"image_url":"https://s3-media1.fl.yelpcdn.com/bphoto/ehGlgvveui53UpqNgG77nQ/o.jpg","rating":4,"coordinates":{"latitude":40.587026,"longitude":-75.529878},"review_count":256,"transactions":[],"url":"https://www.yelp.com/biz/grille-3501-allentown?adjust_creative=EcAKvUpMehZpTzjuIFD57g&utm_campaign=yelp_api_v3&utm_medium=api_v3_business_search&utm_source=EcAKvUpMehZpTzjuIFD57g","display_phone":"(610) 706-0100","phone":"+16107060100","price":"$$$","name":"Grille 3501","alias":"grille-3501-allentown","location":{"country":"US","address3":"","address2":"","city":"Allentown","address1":"3501 Broadway","display_address":["3501 Broadway","Allentown, PA 18104"],"state":"PA","zip_code":"18104"},"id":"f3VRpja8TOYJ7gTTZb_7jw","categories":[{"alias":"newamerican","title":"American (New)"}],"is_closed":false},{"distance":631.2396301209731,"image_url":"https://s3-media1.fl.yelpcdn.com/bphoto/u0tIGYJt9m5IRb04NhojNA/o.jpg","rating":4,"coordinates":{"latitude":40.6034893807149,"longitude":-75.5057867243886},"review_count":78,"transactions":[],"url":"https://www.yelp.com/biz/greenhouse-enoteca-allentown?adjust_creative=EcAKvUpMehZpTzjuIFD57g&utm_campaign=yelp_api_v3&utm_medium=api_v3_business_search&utm_source=EcAKvUpMehZpTzjuIFD57g","display_phone":"(610) 707-1152","phone":"+16107071152","price":"$$","name":"GreenHouse Enoteca","alias":"greenhouse-enoteca-allentown","location":{"country":"US","address3":null,"address2":"","city":"Allentown","address1":"2114 Tilghman St","display_address":["2114 Tilghman St","Allentown, PA 18104"],"state":"PA","zip_code":"18104"},"id":"rmCuDjEHVxhdwVZdFdCeUQ","categories":[{"alias":"wine_bars","title":"Wine Bars"},{"alias":"italian","title":"Italian"},{"alias":"cocktailbars","title":"Cocktail Bars"}],"is_closed":false},{"distance":5757.171053442568,"image_url":"https://s3-media1.fl.yelpcdn.com/bphoto/jOjYkZO3DpmOTMH9VeJUoQ/o.jpg","rating":3.5,"coordinates":{"latitude":40.565315,"longitude":-75.555436},"review_count":40,"transactions":[],"url":"https://www.yelp.com/biz/notch-modern-kitchen-and-bar-allentown?adjust_creative=EcAKvUpMehZpTzjuIFD57g&utm_campaign=yelp_api_v3&utm_medium=api_v3_business_search&utm_source=EcAKvUpMehZpTzjuIFD57g","display_phone":"(610) 841-4610","phone":"+16108414610","name":"Notch Modern Kitchen & Bar","alias":"notch-modern-kitchen-and-bar-allentown","location":{"country":"US","address3":null,"address2":"","city":"Allentown","address1":"5036 Hamilton Blvd","display_address":["5036 Hamilton Blvd","Allentown, PA 18106"],"state":"PA","zip_code":"18106"},"id":"XbmMFDUkdCOO_6JX1un0RA","categories":[{"alias":"asianfusion","title":"Asian Fusion"},{"alias":"bars","title":"Bars"},{"alias":"salad","title":"Salad"}],"is_closed":false},{"distance":7697.13309461908,"image_url":"https://s3-media2.fl.yelpcdn.com/bphoto/53XVbv7j-qoxbGuFxF2Kwg/o.jpg","rating":4.5,"coordinates":{"latitude":40.594704,"longitude":-75.41181},"review_count":341,"transactions":[],"url":"https://www.yelp.com/biz/bolete-restaurant-bethlehem?adjust_creative=EcAKvUpMehZpTzjuIFD57g&utm_campaign=yelp_api_v3&utm_medium=api_v3_business_search&utm_source=EcAKvUpMehZpTzjuIFD57g","display_phone":"(610) 868-6505","phone":"+16108686505","price":"$$$","name":"Bolete Restaurant","alias":"bolete-restaurant-bethlehem","location":{"country":"US","address3":"","address2":"","city":"Bethlehem","address1":"1740 Seidersville Rd","display_address":["1740 Seidersville Rd","Bethlehem, PA 18105"],"state":"PA","zip_code":"18105"},"id":"H6OIOUfqnqZQjzlR9u7cTQ","categories":[{"alias":"newamerican","title":"American (New)"}],"is_closed":false},{"distance":10601.467392290735,"image_url":"https://s3-media3.fl.yelpcdn.com/bphoto/wWkfRB2OwrA-M4ZYMPB4GQ/o.jpg","rating":4.5,"coordinates":{"latitude":40.62207,"longitude":-75.38123},"review_count":346,"transactions":[],"url":"https://www.yelp.com/biz/apollo-grill-bethlehem?adjust_creative=EcAKvUpMehZpTzjuIFD57g&utm_campaign=yelp_api_v3&utm_medium=api_v3_business_search&utm_source=EcAKvUpMehZpTzjuIFD57g","display_phone":"(610) 865-9600","phone":"+16108659600","price":"$$","name":"Apollo Grill","alias":"apollo-grill-bethlehem","location":{"country":"US","address3":"","address2":"","city":"Bethlehem","address1":"85 W Broad St","display_address":["85 W Broad St","Bethlehem, PA 18018"],"state":"PA","zip_code":"18018"},"id":"oRw1u8XvKxy1_oRAzepSmA","categories":[{"alias":"tradamerican","title":"American (Traditional)"}],"is_closed":false},{"distance":8084.475573378458,"image_url":"https://s3-media1.fl.yelpcdn.com/bphoto/fwYtB0kZTbHgyY6Q-0-PVw/o.jpg","rating":4,"coordinates":{"latitude":40.5260453293672,"longitude":-75.5138689154751},"review_count":77,"transactions":["restaurant_reservation"],"url":"https://www.yelp.com/biz/house-emmaus-2?adjust_creative=EcAKvUpMehZpTzjuIFD57g&utm_campaign=yelp_api_v3&utm_medium=api_v3_business_search&utm_source=EcAKvUpMehZpTzjuIFD57g","display_phone":"(610) 421-6666","phone":"+16104216666","price":"$$","name":"House","alias":"house-emmaus-2","location":{"country":"US","address3":"","address2":null,"city":"Emmaus","address1":"1449 Chestnut St","display_address":["1449 Chestnut St","Emmaus, PA 18049"],"state":"PA","zip_code":"18049"},"id":"vbYWI8Kr11RwnO81yRORgQ","categories":[{"alias":"newamerican","title":"American (New)"},{"alias":"bars","title":"Bars"},{"alias":"breakfast_brunch","title":"Breakfast & Brunch"}],"is_closed":false},{"distance":577.2917301738389,"image_url":"https://s3-media3.fl.yelpcdn.com/bphoto/Ly4R6N7PlkmzMhUsY__kzw/o.jpg","rating":4.5,"coordinates":{"latitude":40.603308,"longitude":-75.5012037},"review_count":156,"transactions":[],"url":"https://www.yelp.com/biz/henrys-salt-of-the-sea-allentown?adjust_creative=EcAKvUpMehZpTzjuIFD57g&utm_campaign=yelp_api_v3&utm_medium=api_v3_business_search&utm_source=EcAKvUpMehZpTzjuIFD57g","display_phone":"(610) 434-2628","phone":"+16104342628","price":"$$$","name":"Henry's Salt of the Sea","alias":"henrys-salt-of-the-sea-allentown","location":{"country":"US","address3":"","address2":"","city":"Allentown","address1":"1926 W Allen St","display_address":["1926 W Allen St","Allentown, PA 18104"],"state":"PA","zip_code":"18104"},"id":"aj80o7EULf4K5-rCEX6Ngg","categories":[{"alias":"seafood","title":"Seafood"}],"is_closed":false},{"distance":4992.158343188136,"image_url":"https://s3-media3.fl.yelpcdn.com/bphoto/kBh_XGet8FxCPn32NgpeKA/o.jpg","rating":4,"coordinates":{"latitude":40.6020444,"longitude":-75.5617738},"review_count":46,"transactions":[],"url":"https://www.yelp.com/biz/vivo-italian-kitchen-allentown?adjust_creative=EcAKvUpMehZpTzjuIFD57g&utm_campaign=yelp_api_v3&utm_medium=api_v3_business_search&utm_source=EcAKvUpMehZpTzjuIFD57g","display_phone":"(484) 350-3523","phone":"+14843503523","price":"$$","name":"Vivo Italian Kitchen","alias":"vivo-italian-kitchen-allentown","location":{"country":"US","address3":null,"address2":null,"city":"Allentown","address1":"4558 Crackersport Rd","display_address":["4558 Crackersport Rd","Allentown, PA 18104"],"state":"PA","zip_code":"18104"},"id":"3roJH7R-wHFDTvcckwdyDA","categories":[{"alias":"italian","title":"Italian"},{"alias":"seafood","title":"Seafood"},{"alias":"pizza","title":"Pizza"}],"is_closed":false},{"distance":2210.4937434651324,"image_url":"https://s3-media1.fl.yelpcdn.com/bphoto/b5aIbJ5a9m8Y3rzN_POrMg/o.jpg","rating":4.5,"coordinates":{"latitude":40.60119,"longitude":-75.47709},"review_count":70,"transactions":[],"url":"https://www.yelp.com/biz/bay-leaf-restaurant-allentown?adjust_creative=EcAKvUpMehZpTzjuIFD57g&utm_campaign=yelp_api_v3&utm_medium=api_v3_business_search&utm_source=EcAKvUpMehZpTzjuIFD57g","display_phone":"(610) 433-4211","phone":"+16104334211","price":"$$","name":"Bay Leaf Restaurant","alias":"bay-leaf-restaurant-allentown","location":{"country":"US","address3":"","address2":"","city":"Allentown","address1":"935 W Hamilton St","display_address":["935 W Hamilton St","Allentown, PA 18101"],"state":"PA","zip_code":"18101"},"id":"02oBjokdUTknN3kIWjlvBg","categories":[{"alias":"newamerican","title":"American (New)"},{"alias":"asianfusion","title":"Asian Fusion"}],"is_closed":false},{"distance":805.3673233769883,"image_url":"https://s3-media3.fl.yelpcdn.com/bphoto/FXPLoDuJ5JA_4U25OSd8VQ/o.jpg","rating":4.5,"coordinates":{"latitude":40.60545,"longitude":-75.50085},"review_count":113,"transactions":["delivery","pickup"],"url":"https://www.yelp.com/biz/nostos-greek-restaurant-seafood-and-grill-allentown?adjust_creative=EcAKvUpMehZpTzjuIFD57g&utm_campaign=yelp_api_v3&utm_medium=api_v3_business_search&utm_source=EcAKvUpMehZpTzjuIFD57g","display_phone":"(484) 350-3799","phone":"+14843503799","price":"$$","name":"Nostos Greek Restaurant Seafood And Grill","alias":"nostos-greek-restaurant-seafood-and-grill-allentown","location":{"country":"US","address3":null,"address2":"","city":"Allentown","address1":"701 N 19th St","display_address":["701 N 19th St","Allentown, PA 18104"],"state":"PA","zip_code":"18104"},"id":"AQs-SqEuJQ3INTNsBLGI9Q","categories":[{"alias":"greek","title":"Greek"},{"alias":"seafood","title":"Seafood"},{"alias":"breakfast_brunch","title":"Breakfast & Brunch"}],"is_closed":false},{"distance":5374.653188454581,"image_url":"https://s3-media1.fl.yelpcdn.com/bphoto/rJQchXOUCmrSIwZL-zdL8w/o.jpg","rating":4.5,"coordinates":{"latitude":40.6242167927045,"longitude":-75.4491357695317},"review_count":143,"transactions":["pickup"],"url":"https://www.yelp.com/biz/the-aladdin-restaurant-allentown?adjust_creative=EcAKvUpMehZpTzjuIFD57g&utm_campaign=yelp_api_v3&utm_medium=api_v3_business_search&utm_source=EcAKvUpMehZpTzjuIFD57g","display_phone":"(610) 437-4023","phone":"+16104374023","price":"$$","name":"The Aladdin Restaurant","alias":"the-aladdin-restaurant-allentown","location":{"country":"US","address3":"","address2":"","city":"Allentown","address1":"651 Union Blvd","display_address":["651 Union Blvd","Allentown, PA 18103"],"state":"PA","zip_code":"18103"},"id":"jXN0MHVX59JlXgmu7foMJQ","categories":[{"alias":"mideastern","title":"Middle Eastern"},{"alias":"vegetarian","title":"Vegetarian"},{"alias":"syrian","title":"Syrian"}],"is_closed":false},{"distance":5049.409543601799,"image_url":"https://s3-media2.fl.yelpcdn.com/bphoto/CGWuSq6ATJBRvxum-fisoA/o.jpg","rating":4.5,"coordinates":{"latitude":40.588173,"longitude":-75.561159},"review_count":285,"transactions":["delivery","pickup"],"url":"https://www.yelp.com/biz/lazeez-fresh-mediterranean-grill-allentown?adjust_creative=EcAKvUpMehZpTzjuIFD57g&utm_campaign=yelp_api_v3&utm_medium=api_v3_business_search&utm_source=EcAKvUpMehZpTzjuIFD57g","display_phone":"(610) 351-6897","phone":"+16103516897","price":"$$","name":"Lazeez Fresh Mediterranean Grill","alias":"lazeez-fresh-mediterranean-grill-allentown","location":{"country":"US","address3":"Tilghman Square Plz","address2":"","city":"Allentown","address1":"4666 Broadway","display_address":["4666 Broadway","Tilghman Square Plz","Allentown, PA 18104"],"state":"PA","zip_code":"18104"},"id":"GkKWigF1T7KUEgrb2zpXHA","categories":[{"alias":"mediterranean","title":"Mediterranean"},{"alias":"mideastern","title":"Middle Eastern"}],"is_closed":false},{"distance":5108.739453852487,"image_url":"https://s3-media2.fl.yelpcdn.com/bphoto/IZvIrGPrCDyydibvMjiFNA/o.jpg","rating":4.5,"coordinates":{"latitude":40.5896932882165,"longitude":-75.5626113014675},"review_count":169,"transactions":[],"url":"https://www.yelp.com/biz/thai-avenue-allentown?adjust_creative=EcAKvUpMehZpTzjuIFD57g&utm_campaign=yelp_api_v3&utm_medium=api_v3_business_search&utm_source=EcAKvUpMehZpTzjuIFD57g","display_phone":"(610) 351-9496","phone":"+16103519496","price":"$$","name":"Thai Avenue","alias":"thai-avenue-allentown","location":{"country":"US","address3":"","address2":"","city":"Allentown","address1":"4791 W Tilghman St","display_address":["4791 W Tilghman St","Allentown, PA 18104"],"state":"PA","zip_code":"18104"},"id":"r7gqMFeh2YAqXFzHgqN0Gw","categories":[{"alias":"thai","title":"Thai"},{"alias":"salad","title":"Salad"},{"alias":"seafood","title":"Seafood"}],"is_closed":false},{"distance":10689.047549926981,"image_url":"https://s3-media1.fl.yelpcdn.com/bphoto/FyW-SlgEux03p5gwDdPG-A/o.jpg","rating":4,"coordinates":{"latitude":40.610654380829,"longitude":-75.3772935317116},"review_count":443,"transactions":["delivery","pickup"],"url":"https://www.yelp.com/biz/the-bookstore-speakeasy-bethlehem?adjust_creative=EcAKvUpMehZpTzjuIFD57g&utm_campaign=yelp_api_v3&utm_medium=api_v3_business_search&utm_source=EcAKvUpMehZpTzjuIFD57g","display_phone":"(610) 867-1100","phone":"+16108671100","price":"$$","name":"The Bookstore Speakeasy","alias":"the-bookstore-speakeasy-bethlehem","location":{"country":"US","address3":"","address2":"","city":"Bethlehem","address1":"336 Adams St","display_address":["336 Adams St","Bethlehem, PA 18015"],"state":"PA","zip_code":"18015"},"id":"ZE5oe1DvVLzCC5vMUG_3qQ","categories":[{"alias":"newamerican","title":"American (New)"},{"alias":"speakeasies","title":"Speakeasies"},{"alias":"cocktailbars","title":"Cocktail Bars"}],"is_closed":false},{"distance":7867.367386482245,"image_url":"https://s3-media4.fl.yelpcdn.com/bphoto/MMGoSnXXaE-Dj-qbPIG0Eg/o.jpg","rating":4.5,"coordinates":{"latitude":40.62905667,"longitude":-75.41885167},"review_count":15,"transactions":[],"url":"https://www.yelp.com/biz/pho-viet-royal-bethlehem?adjust_creative=EcAKvUpMehZpTzjuIFD57g&utm_campaign=yelp_api_v3&utm_medium=api_v3_business_search&utm_source=EcAKvUpMehZpTzjuIFD57g","display_phone":"(610) 419-4771","phone":"+16104194771","name":"Pho Viet Royal","alias":"pho-viet-royal-bethlehem","location":{"country":"US","address3":null,"address2":null,"city":"Bethlehem","address1":"2126 W Union Blvd","display_address":["2126 W Union Blvd","Bethlehem, PA 18018"],"state":"PA","zip_code":"18018"},"id":"7b7zmjtoY7HySMhP4Jgwew","categories":[{"alias":"vietnamese","title":"Vietnamese"}],"is_closed":false},{"distance":5644.602517565398,"image_url":"https://s3-media2.fl.yelpcdn.com/bphoto/69ZhlagKek246iDpV5TDTg/o.jpg","rating":5,"coordinates":{"latitude":40.62376,"longitude":-75.44503},"review_count":109,"transactions":["delivery","pickup"],"url":"https://www.yelp.com/biz/the-vegan-butcher-allentown?adjust_creative=EcAKvUpMehZpTzjuIFD57g&utm_campaign=yelp_api_v3&utm_medium=api_v3_business_search&utm_source=EcAKvUpMehZpTzjuIFD57g","display_phone":"(610) 351-1265","phone":"+16103511265","price":"$","name":"The Vegan Butcher","alias":"the-vegan-butcher-allentown","location":{"country":"US","address3":"","address2":null,"city":"Allentown","address1":"768 Union Blvd","display_address":["768 Union Blvd","Allentown, PA 18109"],"state":"PA","zip_code":"18109"},"id":"JQ3hYwJFGmX1PCw0q14rkw","categories":[{"alias":"vegan","title":"Vegan"},{"alias":"gourmet","title":"Specialty Food"},{"alias":"sandwiches","title":"Sandwiches"}],"is_closed":false},{"distance":2021.6647897376486,"image_url":"https://s3-media3.fl.yelpcdn.com/bphoto/mCp14MTlh_Fb0MEomgVDWw/o.jpg","rating":4.5,"coordinates":{"latitude":40.5959673882833,"longitude":-75.5266056600494},"review_count":116,"transactions":["delivery","pickup"],"url":"https://www.yelp.com/biz/sumo-sushi-and-japanese-fusion-allentown?adjust_creative=EcAKvUpMehZpTzjuIFD57g&utm_campaign=yelp_api_v3&utm_medium=api_v3_business_search&utm_source=EcAKvUpMehZpTzjuIFD57g","display_phone":"(610) 351-1887","phone":"+16103511887","price":"$$","name":"Sumo Sushi and Japanese Fusion","alias":"sumo-sushi-and-japanese-fusion-allentown","location":{"country":"US","address3":null,"address2":"","city":"Allentown","address1":"3174 W Tilghman St","display_address":["3174 W Tilghman St","Allentown, PA 18104"],"state":"PA","zip_code":"18104"},"id":"wGGIu-vWrndbehZiz7hwbA","categories":[{"alias":"sushi","title":"Sushi Bars"},{"alias":"japanese","title":"Japanese"},{"alias":"catering","title":"Caterers"}],"is_closed":false}]}